{"type":"FeatureCollection","features":[{"type":"Feature","properties":{"name":"CenturyLink"},"geometry":{"type":"Point","coordinates":[-93.03619,45.16947]}},{"type":"Feature","properties":{"name":"Flexential Minneapolis - Chaska"},"geometry":{"type":"Point","coordinates":[-93.5989,44.85161]}},{"type":"Feature","properties":{"name":"Minnesota Gateway Data Center"},"geometry":{"type":"Point","coordinates":[-93.2547,44.97129]}},{"type":"Feature","properties":{"name":"Verizon - Bloomington Network"},"geometry":{"type":"Point","coordinates":[-93.37538,44.80721]}},{"type":"Feature","properties":{"name":"H5 Minneapolis"},"geometry":{"type":"Point","coordinates":[-93.14747,44.97219]}},{"type":"Feature","properties":{"name":"Lumen Minneapolis 3"},"geometry":{"type":"Point","coordinates":[-93.27661,44.98877]}},{"type":"Feature","properties":{"name":"DataBank"},"geometry":{"type":"Point","coordinates":[-93.38712,45.14369]}},{"type":"Feature","properties":{"name":"CenturyLink"},"geometry":{"type":"Point","coordinates":[-93.10689,45.04177]}},{"type":"Feature","properties":{"name":"Encompass Minneapolis Facility"},"geometry":{"type":"Point","coordinates":[-93.09562,45.13216]}}]}